Count,snowDepth,Calibration,Distance Measured,Datetime,Latitude,Longitude,Altitude,Sat Count,HDOP,GGA,RMC
0,75,198,123,0000-00-00 00:00:00+0000,43.285371,-115.285925,1648.8113,37,0.4,"$GPGGA,185329.20,4317.1222324,N,11517.1555105,W,2,37,0.4,1648.8113,M,-18.2590,M,3.6,0133*4F","$GPRMC,185329.40,A,4317.1222341,N,11517.1555097,W,0.0,,060225,12.2,E,D*33"
1,77,198,121,0000-00-00 00:00:00+0000,43.285406,-115.285903,1648.7262,32,0.5,"$GPGGA,185410.20,4317.1243337,N,11517.1541682,W,2,32,0.5,1648.7262,M,-18.2590,M,5.3,0133*47","$GPRMC,185410.40,A,4317.1243302,N,11517.1541693,W,0.0,,060225,12.2,E,D*39"
2,82,198,116,2025-02-06 18:54:31+0000,43.285436,-115.285887,1648.481,35,0.4,"$GPGGA,185430.80,4317.1261728,N,11517.1531950,W,2,35,0.4,1648.4810,M,-18.2590,M,2.5,0133*49","$GPRMC,185431.00,A,4317.1261779,N,11517.1531904,W,0.0,,060225,12.2,E,D*30"
3,83,198,115,0000-00-00 00:00:00+0000,43.285475,-115.285872,1648.4904,37,0.4,"$GPGGA,185459.40,4317.1284841,N,11517.1523090,W,2,37,0.4,1648.4904,M,-18.2590,M,3.5,0133*40","$GPRMC,185459.60,A,4317.1284854,N,11517.1523087,W,0.1,,060225,12.2,E,D*33"
4,85,198,113,2025-02-06 18:55:16+0000,43.285524,-115.285858,1648.0253,36,0.4,"$GPGGA,185515.80,4317.1314578,N,11517.1514516,W,2,36,0.4,1648.0253,M,-18.2590,M,4.9,0133*42","$GPRMC,185516.00,A,4317.1314591,N,11517.1514482,W,0.1,,060225,12.2,E,D*36"
5,81,198,117,0000-00-00 00:00:00+0000,43.285559,-115.285844,1648.1525,36,0.4,"$GPGGA,185712.60,4317.1335598,N,11517.1506592,W,2,36,0.4,1648.1525,M,-18.2590,M,2.2,0133*41","$GPRMC,185712.80,A,4317.1335662,N,11517.1506576,W,0.0,,060225,12.2,E,D*3C"
6,81,198,117,0000-00-00 00:00:00+0000,43.285601,-115.285831,1647.6735,38,0.4,"$GPGGA,185757.00,4317.1360681,N,11517.1498639,W,2,38,0.4,1647.6735,M,-18.2589,M,7.4,0133*47","$GPRMC,185757.20,A,4317.1360668,N,11517.1498691,W,0.0,,060225,12.2,E,D*31"
7,80,198,118,0000-00-00 00:00:00+0000,43.285646,-115.285815,1647.5876,37,0.4,"$GPGGA,185838.00,4317.1387676,N,11517.1488825,W,2,37,0.4,1647.5876,M,-18.2589,M,9.6,0133*4A","$GPRMC,185838.20,A,4317.1387603,N,11517.1488830,W,0.1,234.1,060225,12.2,E,D*1C"
0,85,202,117,0000-00-00 00:00:00+0000,43.285709,-115.2858,1645.9442,36,0.4,"$GPGGA,190712.00,4317.1425494,N,11517.1479863,W,2,36,0.4,1645.9442,M,-18.2589,M,1.7,0133*49","$GPRMC,190712.20,A,4317.1425400,N,11517.1479623,W,0.0,,060225,12.2,E,D*38"
1,79,202,123,2025-02-06 19:08:07+0000,43.285761,-115.285794,1645.9341,36,0.4,"$GPGGA,190806.80,4317.1456356,N,11517.1476411,W,2,36,0.4,1645.9341,M,-18.2589,M,2.5,0133*45","$GPRMC,190807.00,A,4317.1456339,N,11517.1476367,W,0.0,,060225,12.2,E,D*32"
2,76,202,126,0000-00-00 00:00:00+0000,43.285817,-115.285774,1645.4806,38,0.4,"$GPGGA,190859.00,4317.1490404,N,11517.1464520,W,2,38,0.4,1645.4806,M,-18.2589,M,3.1,0133*43","$GPRMC,190859.20,A,4317.1490342,N,11517.1464552,W,0.0,,060225,12.2,E,D*3E"
3,75,202,127,0000-00-00 00:00:00+0000,43.285868,-115.285756,1645.0048,36,0.4,"$GPGGA,190933.60,4317.1520760,N,11517.1453410,W,2,36,0.4,1645.0048,M,-18.2588,M,4.7,0133*4D","$GPRMC,190933.80,A,4317.1520730,N,11517.1453377,W,0.0,,060225,12.2,E,D*37"
4,88,202,114,0000-00-00 00:00:00+0000,43.28592,-115.285742,1644.9261,37,0.4,"$GPGGA,191009.40,4317.1552008,N,11517.1445104,W,2,37,0.4,1644.9261,M,-18.2588,M,5.1,0133*42","$GPRMC,191009.60,A,4317.1551963,N,11517.1445095,W,0.0,,060225,12.2,E,D*3E"
5,94,202,108,0000-00-00 00:00:00+0000,43.28597,-115.285724,1644.8933,38,0.4,"$GPGGA,191048.60,4317.1582267,N,11517.1434519,W,2,38,0.4,1644.8933,M,-18.2588,M,2.3,0133*4A","$GPRMC,191048.80,A,4317.1582288,N,11517.1434453,W,0.0,,060225,12.2,E,D*3D"
6,78,202,124,0000-00-00 00:00:00+0000,43.286028,-115.285707,1644.2356,37,0.4,"$GPGGA,191124.00,4317.1616938,N,11517.1424072,W,2,37,0.4,1644.2356,M,-18.2588,M,1.7,0133*4A","$GPRMC,191124.20,A,4317.1616850,N,11517.1424022,W,0.0,,060225,12.2,E,D*3E"
7,93,202,109,2025-02-06 19:12:07+0000,43.286081,-115.285693,1643.8811,37,0.4,"$GPGGA,191206.80,4317.1648305,N,11517.1415691,W,2,37,0.4,1643.8811,M,-18.2588,M,2.5,0133*43","$GPRMC,191207.00,A,4317.1648289,N,11517.1415618,W,0.0,,060225,12.2,E,D*36"
8,89,202,113,0000-00-00 00:00:00+0000,43.286133,-115.285677,1643.8706,37,0.4,"$GPGGA,191248.20,4317.1679824,N,11517.1406079,W,2,37,0.4,1643.8706,M,-18.2587,M,1.9,0133*42","$GPRMC,191248.20,A,4317.1679824,N,11517.1406079,W,0.1,,060225,12.2,E,D*32"
9,93,202,109,0000-00-00 00:00:00+0000,43.286178,-115.285661,1644.8301,37,0.4,"$GPGGA,191326.40,4317.1706634,N,11517.1396372,W,2,37,0.4,1644.8301,M,-18.2587,M,4.1,0133*44","$GPRMC,191326.60,A,4317.1706671,N,11517.1396321,W,0.0,,060225,12.2,E,D*39"
10,94,202,108,0000-00-00 00:00:00+0000,43.28623,-115.285644,1644.8086,36,0.4,"$GPGGA,191412.20,4317.1738152,N,11517.1386199,W,2,36,0.4,1644.8086,M,-18.2587,M,1.9,0133*4E","$GPRMC,191412.40,A,4317.1738199,N,11517.1386137,W,0.1,,060225,12.2,E,D*32"
11,84,202,118,0000-00-00 00:00:00+0000,43.286284,-115.285634,1645.4179,35,0.4,"$GPGGA,191507.40,4317.1770125,N,11517.1380607,W,2,35,0.4,1645.4179,M,-18.2587,M,3.1,0133*42","$GPRMC,191507.60,A,4317.1770132,N,11517.1380676,W,0.0,,060225,12.2,E,D*3D"
12,85,202,117,0000-00-00 00:00:00+0000,43.286331,-115.28562,1645.2111,34,0.5,"$GPGGA,191603.20,4317.1798545,N,11517.1372279,W,2,34,0.5,1645.2111,M,-18.2587,M,4.9,0133*40","$GPRMC,191603.40,A,4317.1798502,N,11517.1372292,W,0.0,,060225,12.2,E,D*3A"
13,82,202,120,0000-00-00 00:00:00+0000,43.286383,-115.285605,1645.2702,35,0.5,"$GPGGA,191639.20,4317.1829967,N,11517.1362757,W,2,35,0.5,1645.2702,M,-18.2586,M,4.9,0133*4C","$GPRMC,191639.40,A,4317.1829973,N,11517.1362763,W,0.0,,060225,12.2,E,D*36"
14,84,202,118,0000-00-00 00:00:00+0000,43.286433,-115.285591,1645.8911,37,0.4,"$GPGGA,191731.40,4317.1859805,N,11517.1354472,W,2,37,0.4,1645.8911,M,-18.2586,M,3.1,0133*4A","$GPRMC,191731.60,A,4317.1859782,N,11517.1354469,W,0.0,,060225,12.2,E,D*36"
15,90,202,112,0000-00-00 00:00:00+0000,43.286492,-115.285577,1646.1461,37,0.4,"$GPGGA,191832.40,4317.1894927,N,11517.1346263,W,2,37,0.4,1646.1461,M,-18.2586,M,4.1,0133*44","$GPRMC,191832.60,A,4317.1894948,N,11517.1346261,W,0.0,,060225,12.2,E,D*3E"
16,90,202,112,0000-00-00 00:00:00+0000,43.286542,-115.285565,1646.0587,37,0.4,"$GPGGA,192149.00,4317.1925031,N,11517.1339108,W,2,37,0.4,1646.0587,M,-18.2586,M,2.7,0133*4D","$GPRMC,192149.20,A,4317.1925023,N,11517.1339104,W,0.0,,060225,12.2,E,D*3B"
17,86,202,116,2025-02-06 19:22:33+0000,43.286584,-115.285553,1646.1731,38,0.4,"$GPGGA,192232.80,4317.1950451,N,11517.1331769,W,2,38,0.4,1646.1731,M,-18.2586,M,7.5,0133*45","$GPRMC,192233.00,A,4317.1950482,N,11517.1331882,W,0.0,,060225,12.2,E,D*35"
18,87,202,115,0000-00-00 00:00:00+0000,43.286635,-115.285539,1646.4707,36,0.4,"$GPGGA,192319.40,4317.1981019,N,11517.1323180,W,2,36,0.4,1646.4707,M,-18.2586,M,3.1,0133*49","$GPRMC,192319.60,A,4317.1981004,N,11517.1323142,W,0.0,,060225,12.2,E,D*3A"
19,91,202,111,2025-02-06 19:23:52+0000,43.286673,-115.285531,1646.3768,37,0.4,"$GPGGA,192351.80,4317.2003763,N,11517.1318835,W,2,37,0.4,1646.3768,M,-18.2585,M,4.9,0133*4F","$GPRMC,192352.00,A,4317.2003778,N,11517.1318877,W,0.0,,060225,12.2,E,D*38"
20,85,202,117,0000-00-00 00:00:00+0000,43.286725,-115.285513,1646.1181,38,0.4,"$GPGGA,192427.40,4317.2034990,N,11517.1307921,W,2,38,0.4,1646.1181,M,-18.2585,M,5.7,0133*4A","$GPRMC,192427.60,A,4317.2034992,N,11517.1307952,W,0.0,,060225,12.2,E,D*3D"
21,83,202,119,0000-00-00 00:00:00+0000,43.286784,-115.2855,1646.7769,38,0.4,"$GPGGA,192509.60,4317.2070410,N,11517.1299925,W,2,38,0.4,1646.7769,M,-18.2585,M,4.7,0133*45","$GPRMC,192509.80,A,4317.2070428,N,11517.1299889,W,0.0,,060225,12.2,E,D*33"
22,88,202,114,0000-00-00 00:00:00+0000,43.286836,-115.285488,1646.7205,37,0.4,"$GPGGA,192605.20,4317.2101343,N,11517.1293068,W,2,37,0.4,1646.7205,M,-18.2585,M,3.3,0133*41","$GPRMC,192605.40,A,4317.2101373,N,11517.1293079,W,0.0,,060225,12.2,E,D*33"
23,90,202,112,0000-00-00 00:00:00+0000,43.286883,-115.285479,1647.5642,35,0.4,"$GPGGA,192636.60,4317.2129551,N,11517.1287522,W,2,35,0.4,1647.5642,M,-18.2585,M,2.3,0133*43","$GPRMC,192636.80,A,4317.2129549,N,11517.1287623,W,0.0,,060225,12.2,E,D*36"
24,95,202,107,0000-00-00 00:00:00+0000,43.286934,-115.285462,1647.3638,36,0.4,"$GPGGA,192709.20,4317.2160444,N,11517.1277115,W,2,36,0.4,1647.3638,M,-18.2584,M,7.9,0133*4B","$GPRMC,192709.40,A,4317.2160422,N,11517.1277137,W,0.0,,060225,12.2,E,D*3B"
25,90,202,112,0000-00-00 00:00:00+0000,43.286983,-115.285449,1647.9004,37,0.4,"$GPGGA,192746.80,4317.2189779,N,11517.1269495,W,2,37,0.4,1647.9004,M,-18.2584,M,2.9,0133*45","$GPRMC,192746.80,A,4317.2189779,N,11517.1269495,W,0.0,,060225,12.2,E,D*34"
26,101,202,101,2025-02-06 19:28:19+0000,43.287032,-115.285436,1647.8953,36,0.4,"$GPGGA,192818.80,4317.2219428,N,11517.1261745,W,2,36,0.4,1647.8953,M,-18.2584,M,2.5,0133*4D","$GPRMC,192819.00,A,4317.2219411,N,11517.1261733,W,0.0,,060225,12.2,E,D*39"
27,97,202,105,0000-00-00 00:00:00+0000,43.287079,-115.285427,1648.1467,36,0.4,"$GPGGA,192853.20,4317.2247627,N,11517.1256174,W,2,36,0.4,1648.1467,M,-18.2584,M,3.3,0133*45","$GPRMC,192853.40,A,4317.2247576,N,11517.1256220,W,0.0,,060225,12.2,E,D*3B"
28,78,202,124,0000-00-00 00:00:00+0000,43.287132,-115.285412,1648.6658,37,0.4,"$GPGGA,193520.40,4317.2279163,N,11517.1247279,W,2,37,0.4,1648.6658,M,-18.2584,M,4.1,0133*42","$GPRMC,193520.60,A,4317.2279186,N,11517.1247255,W,0.0,,060225,12.2,E,D*35"
29,89,202,113,0000-00-00 00:00:00+0000,43.287183,-115.285396,1648.3917,38,0.4,"$GPGGA,193556.40,4317.2310004,N,11517.1237612,W,2,38,0.4,1648.3917,M,-18.2584,M,4.1,0133*4D","$GPRMC,193556.60,A,4317.2309907,N,11517.1237546,W,0.0,,060225,12.2,E,D*31"
30,91,202,111,2025-02-06 19:36:26+0000,43.287233,-115.285389,1648.6474,38,0.4,"$GPGGA,193625.80,4317.2339597,N,11517.1233231,W,2,38,0.4,1648.6474,M,-18.2583,M,3.5,0133*4A","$GPRMC,193626.00,A,4317.2339602,N,11517.1233294,W,0.0,,060225,12.2,E,D*36"
31,98,202,104,2025-02-06 19:36:58+0000,43.287282,-115.285373,1648.8502,36,0.4,"$GPGGA,193657.80,4317.2369459,N,11517.1223895,W,2,36,0.4,1648.8502,M,-18.2583,M,4.9,0133*47","$GPRMC,193658.00,A,4317.2369504,N,11517.1223942,W,0.0,,060225,12.2,E,D*3E"
32,89,202,113,0000-00-00 00:00:00+0000,43.287333,-115.285362,1648.6353,38,0.4,"$GPGGA,193732.00,4317.2400076,N,11517.1217233,W,2,38,0.4,1648.6353,M,-18.2583,M,3.7,0133*46","$GPRMC,193732.20,A,4317.2400097,N,11517.1217181,W,0.0,,060225,12.2,E,D*36"
33,98,202,104,0000-00-00 00:00:00+0000,43.287389,-115.285346,1648.332,36,0.5,"$GPGGA,193820.80,4317.2433207,N,11517.1207522,W,2,36,0.5,1648.3320,M,-18.2583,M,4.5,0133*4B","$GPRMC,193820.80,A,4317.2433207,N,11517.1207522,W,0.0,,060225,12.2,E,D*37"
34,76,202,126,0000-00-00 00:00:00+0000,43.287443,-115.285329,1648.0382,37,0.4,"$GPGGA,193858.20,4317.2466042,N,11517.1197406,W,2,37,0.4,1648.0382,M,-18.2583,M,5.4,0133*4B","$GPRMC,193858.40,A,4317.2466019,N,11517.1197424,W,0.0,,060225,12.2,E,D*34"
35,103,202,99,0000-00-00 00:00:00+0000,43.287499,-115.285313,1647.9686,37,0.4,"$GPGGA,193943.40,4317.2499349,N,11517.1187558,W,2,37,0.4,1647.9686,M,-18.2582,M,3.1,0133*40","$GPRMC,193943.40,A,4317.2499349,N,11517.1187558,W,0.0,,060225,12.2,E,D*32"
36,84,202,118,0000-00-00 00:00:00+0000,43.287554,-115.285297,1647.5374,37,0.4,"$GPGGA,194018.60,4317.2532462,N,11517.1178404,W,2,37,0.4,1647.5374,M,-18.2582,M,2.3,0133*43","$GPRMC,194018.80,A,4317.2532464,N,11517.1178421,W,0.0,,060225,12.2,E,D*39"
37,87,202,115,0000-00-00 00:00:00+0000,43.287611,-115.285282,1647.4169,35,0.5,"$GPGGA,194053.20,4317.2566580,N,11517.1169192,W,2,35,0.5,1647.4169,M,-18.2582,M,3.3,0133*43","$GPRMC,194053.40,A,4317.2566621,N,11517.1169163,W,0.0,,060225,12.2,E,D*3B"
38,89,202,113,0000-00-00 00:00:00+0000,43.287669,-115.285266,1646.8985,36,0.5,"$GPGGA,194130.40,4317.2601113,N,11517.1159876,W,2,36,0.5,1646.8985,M,-18.2582,M,2.1,0133*4A","$GPRMC,194130.60,A,4317.2601174,N,11517.1159861,W,0.0,,060225,12.2,E,D*30"
39,86,202,116,2025-02-06 19:42:07+0000,43.287723,-115.285252,1647.1351,36,0.5,"$GPGGA,194206.80,4317.2634095,N,11517.1150978,W,2,36,0.5,1647.1351,M,-18.2582,M,2.5,0133*40","$GPRMC,194207.00,A,4317.2634086,N,11517.1150999,W,0.1,,060225,12.2,E,D*35"
40,88,202,114,0000-00-00 00:00:00+0000,43.28778,-115.285237,1647.0424,36,0.5,"$GPGGA,194250.00,4317.2667878,N,11517.1141914,W,2,36,0.5,1647.0424,M,-18.2581,M,3.7,0133*48","$GPRMC,194250.20,A,4317.2667914,N,11517.1141894,W,0.0,,060225,12.2,E,D*3C"
41,89,202,113,0000-00-00 00:00:00+0000,43.287836,-115.285223,1646.8642,35,0.5,"$GPGGA,194324.00,4317.2701642,N,11517.1133845,W,2,35,0.5,1646.8642,M,-18.2581,M,1.7,0133*46","$GPRMC,194324.20,A,4317.2701782,N,11517.1133858,W,0.1,,060225,12.2,E,D*3A"
42,91,202,111,0000-00-00 00:00:00+0000,43.287895,-115.285206,1647.4819,36,0.5,"$GPGGA,194406.00,4317.2737111,N,11517.1123368,W,2,36,0.5,1647.4819,M,-18.2581,M,1.7,0133*4E","$GPRMC,194406.20,A,4317.2737108,N,11517.1123415,W,0.0,,060225,12.2,E,D*39"
43,88,202,114,0000-00-00 00:00:00+0000,43.287948,-115.285195,1647.6409,37,0.4,"$GPGGA,194441.00,4317.2768985,N,11517.1117096,W,2,37,0.4,1647.6409,M,-18.2581,M,3.1,0133*4C","$GPRMC,194441.20,A,4317.2768989,N,11517.1117165,W,0.1,,060225,12.2,E,D*35"
44,83,202,119,0000-00-00 00:00:00+0000,43.288006,-115.285178,1647.7334,36,0.5,"$GPGGA,194514.00,4317.2803679,N,11517.1106642,W,2,36,0.5,1647.7334,M,-18.2581,M,3.7,0133*42","$GPRMC,194514.20,A,4317.2803709,N,11517.1106674,W,0.0,,060225,12.2,E,D*36"
45,75,202,127,0000-00-00 00:00:00+0000,43.288064,-115.285163,1647.3419,36,0.4,"$GPGGA,194549.00,4317.2838458,N,11517.1097645,W,2,36,0.4,1647.3419,M,-18.2580,M,2.7,0133*40","$GPRMC,194549.20,A,4317.2838524,N,11517.1097682,W,0.0,,060225,12.2,E,D*3B"
46,74,202,128,0000-00-00 00:00:00+0000,43.288065,-115.285163,1647.7582,37,0.5,"$GPGGA,194843.20,4317.2838715,N,11517.1097973,W,2,37,0.5,1647.7582,M,-18.2580,M,2.9,0133*4C","$GPRMC,194843.40,A,4317.2838723,N,11517.1097982,W,0.0,,060225,12.2,E,D*30"
47,86,202,116,0000-00-00 00:00:00+0000,43.288123,-115.285146,1647.6554,36,0.5,"$GPGGA,194923.60,4317.2873784,N,11517.1087818,W,2,36,0.5,1647.6554,M,-18.2580,M,1.3,0133*47","$GPRMC,194923.80,A,4317.2873798,N,11517.1087887,W,0.0,,060225,12.2,E,D*31"
48,85,202,117,2025-02-06 19:49:58+0000,43.288179,-115.285135,1647.7228,36,0.5,"$GPGGA,194957.80,4317.2907600,N,11517.1080914,W,2,36,0.5,1647.7228,M,-18.2580,M,5.0,0133*45","$GPRMC,194958.00,A,4317.2907555,N,11517.1080900,W,0.1,,060225,12.2,E,D*3C"
49,84,202,118,0000-00-00 00:00:00+0000,43.288231,-115.285117,1647.5785,35,0.5,"$GPGGA,195039.40,4317.2938323,N,11517.1070498,W,2,35,0.5,1647.5785,M,-18.2580,M,5.1,0133*45","$GPRMC,195039.60,A,4317.2938341,N,11517.1070495,W,0.0,,060225,12.2,E,D*35"
50,71,202,131,0000-00-00 00:00:00+0000,43.288282,-115.285106,1647.7421,35,0.5,"$GPGGA,195108.60,4317.2969033,N,11517.1063689,W,2,35,0.5,1647.7421,M,-18.2579,M,4.3,0133*48","$GPRMC,195108.80,A,4317.2969002,N,11517.1063670,W,0.0,,060225,12.2,E,D*33"
51,86,202,116,2025-02-06 19:51:44+0000,43.288342,-115.285091,1647.9561,36,0.5,"$GPGGA,195144.00,4317.3004931,N,11517.1054663,W,2,36,0.5,1647.9561,M,-18.2579,M,3.7,0133*45","$GPRMC,195144.00,A,4317.3004931,N,11517.1054663,W,0.1,,060225,12.2,E,D*3E"
52,85,202,117,2025-02-06 19:52:19+0000,43.288396,-115.285076,1647.9635,36,0.5,"$GPGGA,195218.80,4317.3037330,N,11517.1045485,W,2,36,0.5,1647.9635,M,-18.2579,M,2.5,0133*47","$GPRMC,195219.00,A,4317.3037331,N,11517.1045428,W,0.0,,060225,12.2,E,D*33"
53,84,202,118,2025-02-06 19:53:21+0000,43.288452,-115.285055,1648.1523,35,0.5,"$GPGGA,195320.80,4317.3071375,N,11517.1032786,W,2,35,0.5,1648.1523,M,-18.2579,M,4.5,0133*48","$GPRMC,195321.00,A,4317.3071414,N,11517.1032819,W,0.0,,060225,12.2,E,D*35"
54,87,202,115,2025-02-06 19:54:01+0000,43.288508,-115.285043,1648.0753,35,0.5,"$GPGGA,195400.80,4317.3104632,N,11517.1025797,W,2,35,0.5,1648.0753,M,-18.2579,M,2.5,0133*4C","$GPRMC,195401.00,A,4317.3104702,N,11517.1025827,W,0.0,,060225,12.2,E,D*3C"
55,91,202,111,0000-00-00 00:00:00+0000,43.28857,-115.285023,1648.6098,36,0.5,"$GPGGA,195434.20,4317.3141882,N,11517.1014065,W,2,36,0.5,1648.6098,M,-18.2578,M,5.4,0133*4F","$GPRMC,195434.40,A,4317.3141853,N,11517.1013977,W,0.0,,060225,12.2,E,D*35"
56,86,202,116,0000-00-00 00:00:00+0000,43.288626,-115.28501,1648.8617,37,0.4,"$GPGGA,195744.20,4317.3175569,N,11517.1005835,W,2,37,0.4,1648.8617,M,-18.2578,M,3.9,0133*4D","$GPRMC,195744.40,A,4317.3175547,N,11517.1005794,W,0.0,,060225,12.2,E,D*3A"
57,78,202,124,0000-00-00 00:00:00+0000,43.288683,-115.284992,1649.1178,37,0.4,"$GPGGA,195825.40,4317.3209625,N,11517.0994941,W,2,37,0.4,1649.1178,M,-18.2578,M,3.1,0133*4C","$GPRMC,195825.60,A,4317.3209585,N,11517.0994883,W,0.0,,060225,12.2,E,D*3F"
58,81,202,121,0000-00-00 00:00:00+0000,43.288743,-115.284972,1649.1298,35,0.5,"$GPGGA,195900.60,4317.3246079,N,11517.0982912,W,2,35,0.5,1649.1298,M,-18.2578,M,2.4,0133*47","$GPRMC,195900.80,A,4317.3246150,N,11517.0982953,W,0.0,,060225,12.2,E,D*3B"
59,90,202,112,0000-00-00 00:00:00+0000,43.28879,-115.284957,1649.077,37,0.4,"$GPGGA,195940.60,4317.3273806,N,11517.0973965,W,2,37,0.4,1649.0770,M,-18.2578,M,2.5,0133*4B","$GPRMC,195940.80,A,4317.3273830,N,11517.0974035,W,0.0,,060225,12.2,E,D*36"
60,88,202,114,0000-00-00 00:00:00+0000,43.288855,-115.284939,1649.8195,37,0.4,"$GPGGA,200026.00,4317.3312720,N,11517.0963602,W,2,37,0.4,1649.8195,M,-18.2577,M,3.7,0135*46","$GPRMC,200026.20,A,4317.3312749,N,11517.0963572,W,0.0,,060225,12.2,E,D*3D"
61,90,202,112,0000-00-00 00:00:00+0000,43.28891,-115.284923,1649.8607,36,0.4,"$GPGGA,200120.00,4317.3346083,N,11517.0953840,W,2,36,0.4,1649.8607,M,-18.2577,M,3.7,0135*48","$GPRMC,200120.20,A,4317.3346097,N,11517.0953808,W,0.0,,060225,12.2,E,D*3C"
62,89,202,113,2025-02-06 20:01:54+0000,43.288965,-115.284906,1650.4808,35,0.4,"$GPGGA,200153.80,4317.3379151,N,11517.0943491,W,2,35,0.4,1650.4808,M,-18.2577,M,1.5,0135*41","$GPRMC,200154.00,A,4317.3379165,N,11517.0943529,W,0.0,,060225,12.2,E,D*32"
63,93,202,109,0000-00-00 00:00:00+0000,43.289021,-115.28489,1649.9877,36,0.4,"$GPGGA,200228.00,4317.3412862,N,11517.0934213,W,2,36,0.4,1649.9877,M,-18.2577,M,5.2,0135*44","$GPRMC,200228.20,A,4317.3412932,N,11517.0934237,W,0.0,,060225,12.2,E,D*30"
64,99,202,103,2025-02-06 20:03:05+0000,43.289086,-115.284871,1650.1634,36,0.4,"$GPGGA,200305.00,4317.3451491,N,11517.0922868,W,2,36,0.4,1650.1634,M,-18.2576,M,2.9,0135*48","$GPRMC,200305.00,A,4317.3451491,N,11517.0922868,W,0.0,,060225,12.2,E,D*38"
65,90,202,112,2025-02-06 20:03:39+0000,43.289142,-115.284855,1650.1331,36,0.4,"$GPGGA,200338.80,4317.3485051,N,11517.0912956,W,2,36,0.4,1650.1331,M,-18.2576,M,4.5,0135*4A","$GPRMC,200339.00,A,4317.3485024,N,11517.0912957,W,0.0,,060225,12.2,E,D*3A"
66,111,202,91,0000-00-00 00:00:00+0000,43.289204,-115.284841,1650.0014,37,0.4,"$GPGGA,200419.20,4317.3522593,N,11517.0904690,W,2,37,0.4,1650.0014,M,-18.2576,M,2.9,0135*4F","$GPRMC,200419.40,A,4317.3522580,N,11517.0904709,W,0.0,,060225,12.2,E,D*3E"
67,96,202,106,0000-00-00 00:00:00+0000,43.289261,-115.284825,1649.5443,37,0.4,"$GPGGA,200520.60,4317.3556441,N,11517.0895279,W,2,37,0.4,1649.5443,M,-18.2576,M,4.3,0135*40","$GPRMC,200520.60,A,4317.3556441,N,11517.0895279,W,0.0,,060225,12.2,E,D*33"
68,89,202,113,0000-00-00 00:00:00+0000,43.289315,-115.284808,1649.3349,38,0.4,"$GPGGA,200619.20,4317.3588771,N,11517.0884857,W,2,38,0.4,1649.3349,M,-18.2576,M,2.9,0135*40","$GPRMC,200619.40,A,4317.3588747,N,11517.0884912,W,0.0,,060225,12.2,E,D*38"
69,92,202,110,0000-00-00 00:00:00+0000,43.289376,-115.284788,1649.3235,37,0.4,"$GPGGA,200659.40,4317.3625352,N,11517.0872826,W,2,37,0.4,1649.3235,M,-18.2575,M,3.0,0135*42","$GPRMC,200659.60,A,4317.3625345,N,11517.0872800,W,0.0,,060225,12.2,E,D*37"
70,103,202,99,0000-00-00 00:00:00+0000,43.289434,-115.284774,1648.9988,37,0.4,"$GPGGA,200740.00,4317.3660231,N,11517.0864296,W,2,37,0.4,1648.9988,M,-18.2575,M,5.2,0135*4E","$GPRMC,200740.20,A,4317.3660225,N,11517.0864296,W,0.0,,060225,12.2,E,D*3E"
71,89,202,113,0000-00-00 00:00:00+0000,43.289494,-115.284755,1648.8694,38,0.4,"$GPGGA,200822.00,4317.3696642,N,11517.0853008,W,2,38,0.4,1648.8694,M,-18.2575,M,5.2,0135*41","$GPRMC,200822.20,A,4317.3696654,N,11517.0852988,W,0.0,,060225,12.2,E,D*3F"
0,94,190,96,0000-00-00 00:00:00+0000,43.306473,-115.279957,1660.9658,26,0.6,"$GPGGA,220730.00,4318.3883653,N,11516.7974405,W,2,26,0.6,1660.9658,M,-18.2511,M,1.6,0135*45","$GPRMC,220730.20,A,4318.3883675,N,11516.7974457,W,0.1,,060225,12.3,E,D*3B"
1,74,190,116,2025-02-06 22:07:41+0000,43.306442,-115.279991,1660.7108,26,0.6,"$GPGGA,220740.80,4318.3865124,N,11516.7994517,W,1,26,0.6,1660.7108,M,-18.2512,M,,*6B","$GPRMC,220741.00,A,4318.3865066,N,11516.7994667,W,0.0,,060225,12.3,E,A*38"
2,75,190,115,2025-02-06 22:08:02+0000,43.306412,-115.280012,1660.9428,27,0.5,"$GPGGA,220801.80,4318.3847454,N,11516.8007161,W,2,27,0.5,1660.9428,M,-18.2512,M,3.4,0131*48","$GPRMC,220802.00,A,4318.3847467,N,11516.8007088,W,0.0,,060225,12.3,E,D*3B"
3,71,190,119,0000-00-00 00:00:00+0000,43.306376,-115.280033,1659.9904,26,0.6,"$GPGGA,220816.60,4318.3825377,N,11516.8019688,W,2,26,0.6,1659.9904,M,-18.2512,M,5.5,0131*41","$GPRMC,220816.60,A,4318.3825377,N,11516.8019688,W,0.1,,060225,12.3,E,D*32"
4,76,190,114,2025-02-06 22:08:28+0000,43.306338,-115.280057,1658.1068,27,0.5,"$GPGGA,220827.80,4318.3803063,N,11516.8034252,W,2,27,0.5,1658.1068,M,-18.2512,M,11.4,0131*7F","$GPRMC,220828.00,A,4318.3803028,N,11516.8034317,W,0.1,,060225,12.3,E,D*38"
5,72,190,118,0000-00-00 00:00:00+0000,43.306291,-115.280089,1658.4376,26,0.6,"$GPGGA,220840.40,4318.3774798,N,11516.8053302,W,2,26,0.6,1658.4376,M,-18.2512,M,12.0,0131*77","$GPRMC,220840.60,A,4318.3774851,N,11516.8053278,W,0.0,,060225,12.3,E,D*31"
6,71,190,119,0000-00-00 00:00:00+0000,43.306234,-115.280124,1658.1853,26,0.6,"$GPGGA,220859.00,4318.3740464,N,11516.8074354,W,2,26,0.6,1658.1853,M,-18.2513,M,3.2,0131*40","$GPRMC,220859.20,A,4318.3740452,N,11516.8074508,W,0.1,,060225,12.3,E,D*31"
7,50,190,140,0000-00-00 00:00:00+0000,43.306196,-115.280147,1657.5426,26,0.6,"$GPGGA,220915.60,4318.3717385,N,11516.8088027,W,2,26,0.6,1657.5426,M,-18.2513,M,5.2,0131*42","$GPRMC,220915.80,A,4318.3717375,N,11516.8088030,W,0.0,,060225,12.3,E,D*3E"
8,66,190,124,0000-00-00 00:00:00+0000,43.306151,-115.28018,1658.668,27,0.5,"$GPGGA,220934.00,4318.3690892,N,11516.8108090,W,2,27,0.5,1658.6680,M,-18.2513,M,5.6,0131*45","$GPRMC,220934.20,A,4318.3690867,N,11516.8108180,W,0.1,,060225,12.3,E,D*33"
9,71,190,119,0000-00-00 00:00:00+0000,43.306103,-115.280199,1658.9409,27,0.5,"$GPGGA,220945.60,4318.3661947,N,11516.8119162,W,2,27,0.5,1658.9409,M,-18.2513,M,11.2,0131*73","$GPRMC,220945.80,A,4318.3661896,N,11516.8119267,W,0.0,,060225,12.3,E,D*34"
10,82,190,108,0000-00-00 00:00:00+0000,43.306051,-115.280213,1659.4312,27,0.5,"$GPGGA,221002.40,4318.3630418,N,11516.8127785,W,2,27,0.5,1659.4312,M,-18.2514,M,4.0,0131*4B","$GPRMC,221002.60,A,4318.3630432,N,11516.8127849,W,0.1,,060225,12.3,E,D*3D"
11,69,190,121,0000-00-00 00:00:00+0000,43.306,-115.280241,1659.1029,26,0.6,"$GPGGA,221017.00,4318.3600093,N,11516.8144656,W,2,26,0.6,1659.1029,M,-18.2514,M,2.9,0131*46","$GPRMC,221017.20,A,4318.3600104,N,11516.8144738,W,0.0,,060225,12.3,E,D*33"
12,71,190,119,2025-02-06 22:10:29+0000,43.305957,-115.280259,1658.9482,26,0.6,"$GPGGA,221028.80,4318.3574444,N,11516.8155130,W,2,26,0.6,1658.9482,M,-18.2514,M,5.7,0131*4E","$GPRMC,221029.00,A,4318.3574507,N,11516.8155175,W,0.2,,060225,12.3,E,D*36"
13,67,190,123,0000-00-00 00:00:00+0000,43.305908,-115.280283,1657.9893,26,0.6,"$GPGGA,221039.20,4318.3545002,N,11516.8169905,W,2,26,0.6,1657.9893,M,-18.2514,M,10.8,0131*79","$GPRMC,221039.20,A,4318.3545002,N,11516.8169905,W,0.0,,060225,12.3,E,D*35"
14,75,190,115,0000-00-00 00:00:00+0000,43.305865,-115.280307,1657.9031,26,0.6,"$GPGGA,221050.00,4318.3518746,N,11516.8184393,W,2,26,0.6,1657.9031,M,-18.2515,M,9.6,0131*4A","$GPRMC,221050.20,A,4318.3518749,N,11516.8184370,W,0.0,,060225,12.3,E,D*31"
15,70,190,120,2025-02-06 22:11:00+0000,43.305816,-115.280318,1658.2108,27,0.5,"$GPGGA,221059.80,4318.3489323,N,11516.8190692,W,2,27,0.5,1658.2108,M,-18.2515,M,1.4,0131*43","$GPRMC,221100.00,A,4318.3489312,N,11516.8190742,W,0.0,,060225,12.3,E,D*34"
16,77,190,113,0000-00-00 00:00:00+0000,43.30577,-115.28034,1658.3388,27,0.5,"$GPGGA,221113.40,4318.3462250,N,11516.8203941,W,2,27,0.5,1658.3388,M,-18.2515,M,11.6,0131*70","$GPRMC,221113.60,A,4318.3462336,N,11516.8203871,W,0.0,,060225,12.3,E,D*35"
17,75,190,115,0000-00-00 00:00:00+0000,43.305731,-115.280354,1658.8688,27,0.5,"$GPGGA,221151.20,4318.3438358,N,11516.8212378,W,2,27,0.5,1658.8688,M,-18.2515,M,4.8,0131*42","$GPRMC,221151.20,A,4318.3438358,N,11516.8212378,W,0.0,,060225,12.3,E,D*32"
18,77,190,113,0000-00-00 00:00:00+0000,43.305686,-115.280372,1658.586,26,0.6,"$GPGGA,221202.60,4318.3411374,N,11516.8223271,W,2,26,0.6,1658.5860,M,-18.2515,M,8.0,0131*4F","$GPRMC,221202.80,A,4318.3411435,N,11516.8223300,W,0.0,,060225,12.3,E,D*37"
19,79,190,111,0000-00-00 00:00:00+0000,43.305644,-115.280386,1658.5183,27,0.5,"$GPGGA,221214.40,4318.3386384,N,11516.8231432,W,2,27,0.5,1658.5183,M,-18.2515,M,4.0,0131*44","$GPRMC,221214.60,A,4318.3386336,N,11516.8231439,W,0.1,,060225,12.3,E,D*3C"
20,89,190,101,0000-00-00 00:00:00+0000,43.305592,-115.280404,1658.5632,26,0.6,"$GPGGA,221227.20,4318.3354907,N,11516.8242657,W,2,26,0.6,1658.5632,M,-18.2516,M,4.8,0131*4D","$GPRMC,221227.40,A,4318.3354957,N,11516.8242701,W,0.2,,060225,12.3,E,D*33"
21,72,190,118,0000-00-00 00:00:00+0000,43.305542,-115.280421,1658.3229,28,0.5,"$GPGGA,221241.20,4318.3325007,N,11516.8252668,W,2,28,0.5,1658.3229,M,-18.2516,M,6.1,0131*41","$GPRMC,221241.40,A,4318.3324886,N,11516.8252750,W,0.1,,060225,12.3,E,D*3F"
22,71,190,119,0000-00-00 00:00:00+0000,43.305487,-115.280437,1658.5621,28,0.5,"$GPGGA,221254.20,4318.3292353,N,11516.8261965,W,2,28,0.5,1658.5621,M,-18.2516,M,1.8,0131*4C","$GPRMC,221254.40,A,4318.3292429,N,11516.8261954,W,0.0,,060225,12.3,E,D*35"
23,73,190,117,0000-00-00 00:00:00+0000,43.305428,-115.280451,1658.5418,28,0.5,"$GPGGA,221307.40,4318.3256740,N,11516.8270643,W,2,28,0.5,1658.5418,M,-18.2516,M,3.0,0131*4A","$GPRMC,221307.60,A,4318.3256777,N,11516.8270572,W,0.1,,060225,12.3,E,D*39"
24,71,190,119,0000-00-00 00:00:00+0000,43.305363,-115.280464,1658.4917,27,0.5,"$GPGGA,221322.20,4318.3217628,N,11516.8278365,W,2,27,0.5,1658.4917,M,-18.2516,M,8.4,0131*4B","$GPRMC,221322.40,A,4318.3217637,N,11516.8278294,W,0.1,,060225,12.3,E,D*3B"
25,70,190,120,0000-00-00 00:00:00+0000,43.305301,-115.280474,1657.7778,27,0.5,"$GPGGA,221335.40,4318.3180367,N,11516.8284688,W,2,27,0.5,1657.7778,M,-18.2517,M,6.3,0131*4E","$GPRMC,221335.60,A,4318.3180317,N,11516.8284775,W,0.2,,060225,12.3,E,D*3F"
26,71,190,119,0000-00-00 00:00:00+0000,43.305235,-115.280479,1658.1163,28,0.5,"$GPGGA,221349.40,4318.3141079,N,11516.8287240,W,2,28,0.5,1658.1163,M,-18.2517,M,3.0,0131*4B","$GPRMC,221349.60,A,4318.3141062,N,11516.8287201,W,0.0,,060225,12.3,E,D*3F"
27,72,190,118,0000-00-00 00:00:00+0000,43.305174,-115.28048,1657.5019,26,0.6,"$GPGGA,221501.40,4318.3104221,N,11516.8288260,W,2,26,0.6,1657.5019,M,-18.2517,M,3.0,0131*48","$GPRMC,221501.60,A,4318.3104239,N,11516.8288211,W,0.0,,060225,12.3,E,D*36"
28,77,190,113,0000-00-00 00:00:00+0000,43.305105,-115.280494,1658.5327,27,0.5,"$GPGGA,221520.00,4318.3063025,N,11516.8296595,W,2,27,0.5,1658.5327,M,-18.2517,M,3.6,0131*4E","$GPRMC,221520.20,A,4318.3063028,N,11516.8296578,W,0.0,,060225,12.3,E,D*34"
29,78,190,112,0000-00-00 00:00:00+0000,43.305043,-115.2805,1658.4149,27,0.5,"$GPGGA,221533.60,4318.3026048,N,11516.8299828,W,2,27,0.5,1658.4149,M,-18.2517,M,7.5,0131*48","$GPRMC,221533.80,A,4318.3026053,N,11516.8299795,W,0.0,,060225,12.3,E,D*3F"
30,82,190,108,0000-00-00 00:00:00+0000,43.304984,-115.280514,1658.7632,27,0.5,"$GPGGA,221555.00,4318.2990393,N,11516.8308690,W,2,27,0.5,1658.7632,M,-18.2518,M,2.6,0131*4B","$GPRMC,221555.20,A,4318.2990400,N,11516.8308764,W,0.1,,060225,12.3,E,D*34"
31,64,190,126,0000-00-00 00:00:00+0000,43.304925,-115.280526,1659.4315,26,0.6,"$GPGGA,221631.60,4318.2955005,N,11516.8315829,W,2,26,0.6,1659.4315,M,-18.2518,M,3.2,0131*4C","$GPRMC,221631.80,A,4318.2955026,N,11516.8315691,W,0.0,,060225,12.3,E,D*30"
32,86,190,104,2025-02-06 22:16:57+0000,43.304856,-115.280545,1659.8446,28,0.5,"$GPGGA,221656.80,4318.2913758,N,11516.8326769,W,2,28,0.5,1659.8446,M,-18.2518,M,4.4,0131*44","$GPRMC,221657.00,A,4318.2913761,N,11516.8326791,W,0.0,,060225,12.3,E,D*3F"
33,93,190,97,0000-00-00 00:00:00+0000,43.30481,-115.280561,1660.2868,27,0.5,"$GPGGA,221714.20,4318.2886017,N,11516.8336380,W,2,27,0.5,1660.2868,M,-18.2518,M,3.8,0131*4E","$GPRMC,221714.40,A,4318.2886042,N,11516.8336404,W,0.0,,060225,12.3,E,D*38"
34,87,190,103,0000-00-00 00:00:00+0000,43.304768,-115.280575,1660.2492,26,0.6,"$GPGGA,221730.60,4318.2860914,N,11516.8344881,W,2,26,0.6,1660.2492,M,-18.2518,M,2.2,0131*41","$GPRMC,221730.80,A,4318.2860907,N,11516.8344874,W,0.0,,060225,12.3,E,D*3C"
35,80,190,110,0000-00-00 00:00:00+0000,43.3047,-115.280601,1660.605,28,0.5,"$GPGGA,221803.20,4318.2819996,N,11516.8360597,W,2,28,0.5,1660.6050,M,-18.2519,M,4.8,0131*4C","$GPRMC,221803.40,A,4318.2820006,N,11516.8360615,W,0.0,,060225,12.3,E,D*3C"
36,88,190,102,0000-00-00 00:00:00+0000,43.30466,-115.280614,1660.5486,28,0.5,"$GPGGA,221901.00,4318.2795988,N,11516.8368367,W,2,28,0.5,1660.5486,M,-18.2519,M,5.9,0131*44","$GPRMC,221901.20,A,4318.2796017,N,11516.8368449,W,0.0,,060225,12.3,E,D*38"
37,83,190,107,0000-00-00 00:00:00+0000,43.304623,-115.280622,1660.4053,29,0.5,"$GPGGA,221923.60,4318.2773595,N,11516.8373243,W,2,29,0.5,1660.4053,M,-18.2519,M,1.2,0131*44","$GPRMC,221923.80,A,4318.2773555,N,11516.8373194,W,0.0,,060225,12.3,E,D*35"
38,91,190,99,0000-00-00 00:00:00+0000,43.30458,-115.28063,1660.6751,28,0.5,"$GPGGA,221944.60,4318.2747855,N,11516.8378213,W,2,28,0.5,1660.6751,M,-18.2519,M,4.2,0131*4E","$GPRMC,221944.80,A,4318.2747855,N,11516.8378243,W,0.0,,060225,12.3,E,D*3C"
39,90,190,100,2025-02-06 22:20:00+0000,43.304542,-115.280636,1659.7849,26,0.6,"$GPGGA,221959.80,4318.2724938,N,11516.8381812,W,2,26,0.6,1659.7849,M,-18.2519,M,8.9,0131*49","$GPRMC,222000.00,A,4318.2724891,N,11516.8381774,W,0.0,,060225,12.3,E,D*34"
40,83,190,107,2025-02-06 22:20:17+0000,43.304499,-115.280642,1659.5421,27,0.5,"$GPGGA,222016.80,4318.2699442,N,11516.8385122,W,2,27,0.5,1659.5421,M,-18.2519,M,2.7,0131*47","$GPRMC,222017.00,A,4318.2699484,N,11516.8385023,W,0.0,,060225,12.3,E,D*3C"
41,73,190,117,0000-00-00 00:00:00+0000,43.30443,-115.280652,1659.5158,28,0.5,"$GPGGA,222419.40,4318.2657835,N,11516.8391088,W,2,28,0.5,1659.5158,M,-18.2520,M,3.0,0131*42","$GPRMC,222419.60,A,4318.2657840,N,11516.8391126,W,0.0,,060225,12.3,E,D*37"
42,79,190,111,0000-00-00 00:00:00+0000,43.304396,-115.280654,1659.5638,29,0.5,"$GPGGA,222437.20,4318.2637779,N,11516.8392194,W,2,29,0.5,1659.5638,M,-18.2520,M,2.8,0131*4F","$GPRMC,222437.40,A,4318.2637818,N,11516.8392231,W,0.0,,060225,12.3,E,D*34"
43,81,190,109,0000-00-00 00:00:00+0000,43.304363,-115.280662,1658.9927,30,0.5,"$GPGGA,222454.20,4318.2618069,N,11516.8397208,W,2,30,0.5,1658.9927,M,-18.2520,M,1.8,0131*45","$GPRMC,222454.40,A,4318.2618137,N,11516.8397202,W,0.1,,060225,12.3,E,D*3C"
44,76,190,114,0000-00-00 00:00:00+0000,43.304329,-115.280665,1659.1494,30,0.5,"$GPGGA,222509.20,4318.2597151,N,11516.8399264,W,2,30,0.5,1659.1494,M,-18.2520,M,10.8,0131*7A","$GPRMC,222509.40,A,4318.2597143,N,11516.8399190,W,0.0,,060225,12.3,E,D*35"
45,79,190,111,2025-02-06 22:25:23+0000,43.304298,-115.280674,1659.0889,31,0.5,"$GPGGA,222522.80,4318.2578527,N,11516.8404136,W,2,31,0.5,1659.0889,M,-18.2520,M,2.8,0131*49","$GPRMC,222523.00,A,4318.2578578,N,11516.8404015,W,0.0,,060225,12.3,E,D*3B"
46,87,190,103,2025-02-06 22:25:51+0000,43.304262,-115.280684,1658.8844,29,0.5,"$GPGGA,222550.80,4318.2557444,N,11516.8410386,W,2,29,0.5,1658.8844,M,-18.2520,M,4.4,0131*42","$GPRMC,222551.00,A,4318.2557374,N,11516.8410423,W,0.1,,060225,12.3,E,D*3C"
47,77,190,113,2025-02-06 22:26:07+0000,43.304223,-115.280689,1658.7459,29,0.5,"$GPGGA,222606.80,4318.2533796,N,11516.8413465,W,2,29,0.5,1658.7459,M,-18.2520,M,2.5,0131*4D","$GPRMC,222607.00,A,4318.2533807,N,11516.8413545,W,0.0,,060225,12.3,E,D*32"
48,74,190,116,2025-02-06 22:26:22+0000,43.304188,-115.280695,1658.2163,29,0.5,"$GPGGA,222621.80,4318.2512841,N,11516.8417255,W,2,29,0.5,1658.2163,M,-18.2520,M,5.5,0131*41","$GPRMC,222622.00,A,4318.2512878,N,11516.8417227,W,0.0,,060225,12.3,E,D*39"
49,80,190,110,0000-00-00 00:00:00+0000,43.304151,-115.280699,1658.2705,31,0.5,"$GPGGA,222637.60,4318.2490394,N,11516.8419530,W,2,31,0.5,1658.2705,M,-18.2520,M,3.2,0131*44","$GPRMC,222637.80,A,4318.2490351,N,11516.8419547,W,0.0,,060225,12.3,E,D*31"
50,71,190,119,0000-00-00 00:00:00+0000,43.304116,-115.280706,1658.5398,31,0.5,"$GPGGA,222650.60,4318.2469780,N,11516.8423370,W,2,31,0.5,1658.5398,M,-18.2521,M,4.2,0131*48","$GPRMC,222650.80,A,4318.2469772,N,11516.8423463,W,0.0,,060225,12.3,E,D*3D"
51,76,190,114,0000-00-00 00:00:00+0000,43.304074,-115.280713,1658.5564,31,0.5,"$GPGGA,222706.00,4318.2444691,N,11516.8427768,W,2,31,0.5,1658.5564,M,-18.2521,M,1.6,0131*4F","$GPRMC,222706.20,A,4318.2444750,N,11516.8427711,W,0.1,,060225,12.3,E,D*39"
52,76,190,114,0000-00-00 00:00:00+0000,43.304041,-115.280718,1658.1233,30,0.5,"$GPGGA,222721.40,4318.2424592,N,11516.8430807,W,2,30,0.5,1658.1233,M,-18.2521,M,5.0,0131*4A","$GPRMC,222721.60,A,4318.2424619,N,11516.8430796,W,0.0,,060225,12.3,E,D*3A"
53,75,190,115,0000-00-00 00:00:00+0000,43.304007,-115.280721,1658.3949,30,0.5,"$GPGGA,222754.60,4318.2404171,N,11516.8432896,W,2,30,0.5,1658.3949,M,-18.2521,M,2.2,0131*4A","$GPRMC,222754.80,A,4318.2404111,N,11516.8432893,W,0.0,,060225,12.3,E,D*33"
54,74,190,116,0000-00-00 00:00:00+0000,43.303965,-115.280727,1658.1252,29,0.5,"$GPGGA,222811.40,4318.2378782,N,11516.8436466,W,2,29,0.5,1658.1252,M,-18.2521,M,3.4,0131*4B","$GPRMC,222811.60,A,4318.2378776,N,11516.8436476,W,0.0,,060225,12.3,E,D*3B"
55,75,190,115,0000-00-00 00:00:00+0000,43.303925,-115.280731,1657.9765,30,0.5,"$GPGGA,222830.40,4318.2354818,N,11516.8438363,W,2,30,0.5,1657.9765,M,-18.2521,M,2.0,0131*4D","$GPRMC,222830.60,A,4318.2354662,N,11516.8438362,W,0.1,,060225,12.3,E,D*3F"
56,75,190,115,0000-00-00 00:00:00+0000,43.303885,-115.280738,1658.085,30,0.5,"$GPGGA,222931.40,4318.2330821,N,11516.8442689,W,2,30,0.5,1658.0850,M,-18.2521,M,3.0,0131*47","$GPRMC,222931.60,A,4318.2330823,N,11516.8442699,W,0.0,,060225,12.3,E,D*3B"
57,79,190,111,2025-02-06 22:30:02+0000,43.303845,-115.280743,1658.0753,29,0.5,"$GPGGA,223001.80,4318.2307009,N,11516.8445867,W,2,29,0.5,1658.0753,M,-18.2521,M,3.4,0131*4F","$GPRMC,223002.00,A,4318.2306999,N,11516.8445876,W,0.0,,060225,12.3,E,D*38"
58,78,190,112,0000-00-00 00:00:00+0000,43.303808,-115.280748,1658.1353,28,0.5,"$GPGGA,223034.20,4318.2284965,N,11516.8448968,W,2,28,0.5,1658.1353,M,-18.2522,M,5.9,0131*45","$GPRMC,223034.40,A,4318.2284903,N,11516.8448918,W,0.0,,060225,12.3,E,D*35"
59,82,190,108,2025-02-06 22:31:01+0000,43.303776,-115.280755,1658.0812,28,0.5,"$GPGGA,223100.80,4318.2265583,N,11516.8452758,W,2,28,0.5,1658.0812,M,-18.2522,M,2.5,0131*40","$GPRMC,223101.00,A,4318.2265521,N,11516.8452727,W,0.0,,060225,12.3,E,D*3C"
60,81,190,109,2025-02-06 22:31:19+0000,43.303747,-115.280757,1658.1128,28,0.5,"$GPGGA,223118.80,4318.2248051,N,11516.8454468,W,2,28,0.5,1658.1128,M,-18.2522,M,2.5,0131*4B","$GPRMC,223119.00,A,4318.2248053,N,11516.8454524,W,0.0,,060225,12.3,E,D*3D"
61,79,190,111,0000-00-00 00:00:00+0000,43.303709,-115.280761,1658.264,29,0.5,"$GPGGA,223134.20,4318.2225568,N,11516.8456399,W,2,29,0.5,1658.2640,M,-18.2522,M,5.8,0131*41","$GPRMC,223134.40,A,4318.2225570,N,11516.8456424,W,0.0,,060225,12.3,E,D*3A"
62,77,190,113,2025-02-06 22:31:53+0000,43.303676,-115.280765,1658.2385,29,0.5,"$GPGGA,223152.80,4318.2205449,N,11516.8459218,W,2,29,0.5,1658.2385,M,-18.2522,M,2.8,0131*47","$GPRMC,223153.00,A,4318.2205460,N,11516.8459209,W,0.0,,060225,12.3,E,D*3B"
63,77,190,113,0000-00-00 00:00:00+0000,43.303643,-115.28077,1658.3938,27,0.5,"$GPGGA,223207.00,4318.2185697,N,11516.8462092,W,2,27,0.5,1658.3938,M,-18.2522,M,2.6,0131*43","$GPRMC,223207.20,A,4318.2185718,N,11516.8462063,W,0.1,,060225,12.3,E,D*3B"
64,78,190,112,0000-00-00 00:00:00+0000,43.303608,-115.280777,1658.4617,27,0.5,"$GPGGA,223223.40,4318.2165014,N,11516.8466385,W,2,27,0.5,1658.4617,M,-18.2522,M,3.4,0131*45","$GPRMC,223223.60,A,4318.2165028,N,11516.8466376,W,0.0,,060225,12.3,E,D*31"
65,75,190,115,2025-02-06 22:32:43+0000,43.303575,-115.280784,1658.5893,28,0.5,"$GPGGA,223242.80,4318.2144865,N,11516.8470626,W,2,28,0.5,1658.5893,M,-18.2522,M,2.4,0131*45","$GPRMC,223243.00,A,4318.2144861,N,11516.8470617,W,0.1,,060225,12.3,E,D*33"
66,77,190,113,2025-02-06 22:33:00+0000,43.303542,-115.280793,1658.6758,29,0.5,"$GPGGA,223259.80,4318.2125257,N,11516.8475895,W,2,29,0.5,1658.6758,M,-18.2522,M,1.4,0131*49","$GPRMC,223300.00,A,4318.2125206,N,11516.8475901,W,0.0,,060225,12.3,E,D*35"
67,80,190,110,0000-00-00 00:00:00+0000,43.303509,-115.280797,1658.4345,28,0.5,"$GPGGA,223313.00,4318.2105322,N,11516.8478352,W,2,28,0.5,1658.4345,M,-18.2522,M,2.6,0131*48","$GPRMC,223313.20,A,4318.2105344,N,11516.8478412,W,0.1,,060225,12.3,E,D*33"
68,79,190,111,0000-00-00 00:00:00+0000,43.303467,-115.280802,1658.8043,28,0.5,"$GPGGA,223328.00,4318.2080045,N,11516.8481165,W,2,28,0.5,1658.8043,M,-18.2523,M,5.6,0131*41","$GPRMC,223328.20,A,4318.2080051,N,11516.8481170,W,0.0,,060225,12.3,E,D*36"
69,79,190,111,0000-00-00 00:00:00+0000,43.303428,-115.28081,1659.2581,29,0.5,"$GPGGA,223350.60,4318.2056878,N,11516.8486140,W,2,29,0.5,1659.2581,M,-18.2523,M,4.2,0131*41","$GPRMC,223350.80,A,4318.2056929,N,11516.8486129,W,0.0,,060225,12.3,E,D*35"
70,82,190,108,0000-00-00 00:00:00+0000,43.30339,-115.280816,1659.2617,32,0.5,"$GPGGA,223408.20,4318.2034116,N,11516.8489631,W,2,32,0.5,1659.2617,M,-18.2523,M,3.8,0131*4F","$GPRMC,223408.40,A,4318.2034155,N,11516.8489574,W,0.0,,060225,12.3,E,D*37"
71,84,190,106,0000-00-00 00:00:00+0000,43.303351,-115.280825,1659.5356,31,0.5,"$GPGGA,223424.60,4318.2010681,N,11516.8495017,W,2,31,0.5,1659.5356,M,-18.2523,M,2.2,0131*4A","$GPRMC,223424.80,A,4318.2010678,N,11516.8495087,W,0.0,,060225,12.3,E,D*3F"
72,74,190,116,0000-00-00 00:00:00+0000,43.303319,-115.280835,1659.8399,31,0.5,"$GPGGA,223440.00,4318.1991385,N,11516.8500971,W,2,31,0.5,1659.8399,M,-18.2523,M,5.6,0131*45","$GPRMC,223440.20,A,4318.1991329,N,11516.8500984,W,0.0,,060225,12.3,E,D*32"
73,76,190,114,0000-00-00 00:00:00+0000,43.30328,-115.280845,1659.8787,30,0.5,"$GPGGA,223455.60,4318.1967890,N,11516.8507184,W,2,30,0.5,1659.8787,M,-18.2523,M,3.3,0131*4D","$GPRMC,223455.80,A,4318.1967988,N,11516.8507156,W,0.0,,060225,12.3,E,D*34"
74,69,190,121,2025-02-06 22:35:17+0000,43.303235,-115.280855,1660.1621,31,0.5,"$GPGGA,223516.80,4318.1940767,N,11516.8512979,W,2,31,0.5,1660.1621,M,-18.2523,M,2.6,0131*42","$GPRMC,223517.00,A,4318.1940717,N,11516.8512948,W,0.0,,060225,12.3,E,D*35"
75,73,190,117,0000-00-00 00:00:00+0000,43.303197,-115.280865,1660.0209,30,0.5,"$GPGGA,223534.60,4318.1918405,N,11516.8519134,W,2,30,0.5,1660.0209,M,-18.2524,M,2.6,0131*45","$GPRMC,223534.80,A,4318.1918378,N,11516.8519125,W,0.0,,060225,12.3,E,D*34"
76,76,190,114,0000-00-00 00:00:00+0000,43.303168,-115.280872,1659.7374,31,0.5,"$GPGGA,223549.60,4318.1900895,N,11516.8523214,W,2,31,0.5,1659.7374,M,-18.2524,M,3.2,0131*49","$GPRMC,223549.80,A,4318.1900855,N,11516.8523165,W,0.1,,060225,12.3,E,D*3F"
77,70,190,120,0000-00-00 00:00:00+0000,43.303124,-115.280878,1659.7408,30,0.5,"$GPGGA,223605.80,4318.1874567,N,11516.8526641,W,2,30,0.5,1659.7408,M,-18.2524,M,1.4,0131*46","$GPRMC,223605.80,A,4318.1874567,N,11516.8526641,W,0.1,,060225,12.3,E,D*3E"
78,75,190,115,0000-00-00 00:00:00+0000,43.303091,-115.280884,1659.5145,31,0.5,"$GPGGA,223620.40,4318.1854453,N,11516.8530353,W,2,31,0.5,1659.5145,M,-18.2524,M,10.0,0131*73","$GPRMC,223620.60,A,4318.1854439,N,11516.8530308,W,0.0,,060225,12.3,E,D*31"
79,74,190,116,0000-00-00 00:00:00+0000,43.303047,-115.28089,1659.457,31,0.5,"$GPGGA,223637.40,4318.1828244,N,11516.8534206,W,2,31,0.5,1659.4570,M,-18.2524,M,3.0,0131*4A","$GPRMC,223637.60,A,4318.1828264,N,11516.8534177,W,0.0,,060225,12.3,E,D*3C"
80,74,190,116,2025-02-06 22:37:09+0000,43.302995,-115.2809,1659.268,31,0.5,"$GPGGA,223708.80,4318.1797106,N,11516.8540022,W,2,31,0.5,1659.2680,M,-18.2524,M,4.4,0131*4B","$GPRMC,223709.00,A,4318.1797089,N,11516.8539960,W,0.0,,060225,12.3,E,D*3F"
81,76,190,114,0000-00-00 00:00:00+0000,43.302971,-115.280905,1659.1993,31,0.5,"$GPGGA,223751.60,4318.1782468,N,11516.8542851,W,2,31,0.5,1659.1993,M,-18.2524,M,5.2,0131*47","$GPRMC,223751.80,A,4318.1782494,N,11516.8542853,W,0.0,,060225,12.3,E,D*3B"
82,61,190,129,0000-00-00 00:00:00+0000,43.302935,-115.280909,1659.3075,32,0.5,"$GPGGA,223814.40,4318.1760928,N,11516.8545270,W,2,32,0.5,1659.3075,M,-18.2524,M,4.0,0131*43","$GPRMC,223814.60,A,4318.1760958,N,11516.8545323,W,0.1,,060225,12.3,E,D*30"
83,69,190,121,2025-02-06 22:38:38+0000,43.302896,-115.280921,1658.6857,31,0.5,"$GPGGA,223837.80,4318.1737895,N,11516.8552433,W,2,31,0.5,1658.6857,M,-18.2525,M,3.4,0131*41","$GPRMC,223838.00,A,4318.1737960,N,11516.8552526,W,0.0,,060225,12.3,E,D*35"
84,72,190,118,0000-00-00 00:00:00+0000,43.302859,-115.280918,1658.9585,30,0.5,"$GPGGA,223856.00,4318.1715309,N,11516.8551043,W,2,30,0.5,1658.9585,M,-18.2525,M,3.6,0131*4E","$GPRMC,223856.20,A,4318.1715325,N,11516.8551020,W,0.0,,060225,12.3,E,D*34"
85,72,190,118,0000-00-00 00:00:00+0000,43.302821,-115.280921,1658.2442,29,0.5,"$GPGGA,223911.20,4318.1692412,N,11516.8552841,W,2,29,0.5,1658.2442,M,-18.2525,M,3.0,0131*4B","$GPRMC,223911.40,A,4318.1692410,N,11516.8552774,W,0.0,,060225,12.3,E,D*3A"
86,74,190,116,0000-00-00 00:00:00+0000,43.30278,-115.280927,1658.3526,29,0.5,"$GPGGA,223925.60,4318.1668029,N,11516.8556427,W,2,29,0.5,1658.3526,M,-18.2525,M,3.2,0131*49","$GPRMC,223925.80,A,4318.1668009,N,11516.8556468,W,0.0,,060225,12.3,E,D*32"
87,70,190,120,0000-00-00 00:00:00+0000,43.302744,-115.280934,1658.4378,29,0.5,"$GPGGA,223942.20,4318.1646656,N,11516.8560365,W,2,29,0.5,1658.4378,M,-18.2525,M,1.8,0131*48","$GPRMC,223942.40,A,4318.1646745,N,11516.8560312,W,0.0,,060225,12.3,E,D*33"
88,73,190,117,2025-02-06 22:40:00+0000,43.302709,-115.280939,1658.2305,29,0.5,"$GPGGA,223959.80,4318.1625406,N,11516.8563489,W,2,29,0.5,1658.2305,M,-18.2525,M,1.4,0131*4C","$GPRMC,224000.00,A,4318.1625400,N,11516.8563627,W,0.0,,060225,12.3,E,D*38"
89,72,190,118,2025-02-06 22:40:32+0000,43.302668,-115.280939,1658.0216,28,0.5,"$GPGGA,224031.80,4318.1600940,N,11516.8563249,W,2,28,0.5,1658.0216,M,-18.2525,M,3.4,0131*4C","$GPRMC,224032.00,A,4318.1600935,N,11516.8563327,W,0.0,,060225,12.3,E,D*30"
90,73,190,117,0000-00-00 00:00:00+0000,43.302621,-115.28094,1657.7008,28,0.5,"$GPGGA,224056.20,4318.1572687,N,11516.8564156,W,2,28,0.5,1657.7008,M,-18.2525,M,3.8,0131*46","$GPRMC,224056.40,A,4318.1572716,N,11516.8564198,W,0.0,,060225,12.3,E,D*3E"
91,74,190,116,2025-02-06 22:41:12+0000,43.302579,-115.280939,1657.4598,30,0.5,"$GPGGA,224111.80,4318.1547334,N,11516.8563614,W,2,30,0.5,1657.4598,M,-18.2525,M,1.4,0131*4B","$GPRMC,224112.00,A,4318.1547232,N,11516.8563579,W,0.0,,060225,12.3,E,D*32"
92,73,190,117,0000-00-00 00:00:00+0000,43.302538,-115.280935,1657.5341,29,0.5,"$GPGGA,224150.60,4318.1522610,N,11516.8561029,W,2,29,0.5,1657.5341,M,-18.2525,M,4.2,0131*42","$GPRMC,224150.80,A,4318.1522602,N,11516.8561051,W,0.0,,060225,12.3,E,D*35"
93,78,190,112,0000-00-00 00:00:00+0000,43.302501,-115.280936,1657.5518,28,0.5,"$GPGGA,224206.40,4318.1500300,N,11516.8561385,W,2,28,0.5,1657.5518,M,-18.2526,M,2.1,0131*4C","$GPRMC,224206.60,A,4318.1500282,N,11516.8561383,W,0.0,,060225,12.3,E,D*3B"
94,79,190,111,0000-00-00 00:00:00+0000,43.302458,-115.280935,1657.7196,30,0.5,"$GPGGA,224222.00,4318.1474613,N,11516.8560923,W,2,30,0.5,1657.7196,M,-18.2526,M,5.6,0131*45","$GPRMC,224222.20,A,4318.1474644,N,11516.8560958,W,0.0,,060225,12.3,E,D*38"
95,82,190,108,0000-00-00 00:00:00+0000,43.302415,-115.280931,1658.0642,30,0.5,"$GPGGA,224240.00,4318.1448890,N,11516.8558602,W,2,30,0.5,1658.0642,M,-18.2526,M,5.6,0131*4A","$GPRMC,224240.20,A,4318.1448923,N,11516.8558552,W,0.1,,060225,12.3,E,D*31"
96,77,190,113,0000-00-00 00:00:00+0000,43.302377,-115.280931,1658.0368,29,0.5,"$GPGGA,224257.80,4318.1426348,N,11516.8558836,W,2,29,0.5,1658.0368,M,-18.2526,M,5.4,0131*4C","$GPRMC,224257.80,A,4318.1426348,N,11516.8558836,W,0.0,,060225,12.3,E,D*3C"
97,80,190,110,0000-00-00 00:00:00+0000,43.302339,-115.280924,1658.2977,28,0.5,"$GPGGA,224320.40,4318.1403436,N,11516.8554464,W,2,28,0.5,1658.2977,M,-18.2526,M,4.0,0131*4D","$GPRMC,224320.60,A,4318.1403452,N,11516.8554453,W,0.0,,060225,12.3,E,D*3B"
98,84,190,106,0000-00-00 00:00:00+0000,43.302298,-115.280921,1657.8746,29,0.5,"$GPGGA,224358.20,4318.1378862,N,11516.8552308,W,2,29,0.5,1657.8746,M,-18.2526,M,5.8,0131*48","$GPRMC,224358.40,A,4318.1378947,N,11516.8552313,W,0.0,,060225,12.3,E,D*31"
99,86,190,104,0000-00-00 00:00:00+0000,43.302263,-115.280922,1658.8137,28,0.5,"$GPGGA,224425.40,4318.1357766,N,11516.8553370,W,2,28,0.5,1658.8137,M,-18.2526,M,3.0,0131*4B","$GPRMC,224425.60,A,4318.1357704,N,11516.8553342,W,0.0,,060225,12.3,E,D*3F"
100,85,190,105,0000-00-00 00:00:00+0000,43.302227,-115.280919,1658.3172,28,0.5,"$GPGGA,224747.60,4318.1336425,N,11516.8551641,W,2,28,0.5,1658.3172,M,-18.2526,M,1.2,0131*42","$GPRMC,224747.80,A,4318.1336429,N,11516.8551583,W,0.1,,060225,12.3,E,D*35"
101,82,190,108,0000-00-00 00:00:00+0000,43.302186,-115.28092,1658.6403,29,0.5,"$GPGGA,224925.60,4318.1311897,N,11516.8551721,W,2,29,0.5,1658.6403,M,-18.2526,M,3.2,0131*4A","$GPRMC,224925.80,A,4318.1311878,N,11516.8551705,W,0.0,,060225,12.3,E,D*3F"
102,83,190,107,0000-00-00 00:00:00+0000,43.30214,-115.280921,1658.6428,29,0.5,"$GPGGA,224942.20,4318.1284154,N,11516.8552730,W,2,29,0.5,1658.6428,M,-18.2526,M,1.8,0131*46","$GPRMC,224942.40,A,4318.1284094,N,11516.8552811,W,0.0,,060225,12.3,E,D*3C"
103,77,190,113,0000-00-00 00:00:00+0000,43.302098,-115.280915,1658.7055,29,0.5,"$GPGGA,224952.60,4318.1258678,N,11516.8549224,W,2,29,0.5,1658.7055,M,-18.2526,M,2.6,0131*43","$GPRMC,224952.80,A,4318.1258707,N,11516.8549234,W,0.0,,060225,12.3,E,D*3A"
104,86,190,104,2025-02-06 22:50:06+0000,43.302056,-115.280919,1658.5043,28,0.5,"$GPGGA,225005.80,4318.1233439,N,11516.8551432,W,2,28,0.5,1658.5043,M,-18.2527,M,1.5,0131*40","$GPRMC,225006.00,A,4318.1233459,N,11516.8551482,W,0.0,,060225,12.3,E,D*3C"
105,75,190,115,0000-00-00 00:00:00+0000,43.302008,-115.28092,1658.3754,28,0.5,"$GPGGA,225019.40,4318.1205000,N,11516.8551741,W,2,28,0.5,1658.3754,M,-18.2527,M,3.1,0131*4C","$GPRMC,225019.60,A,4318.1205008,N,11516.8551692,W,0.0,,060225,12.3,E,D*32"
106,75,190,115,2025-02-06 22:50:36+0000,43.301956,-115.280923,1658.3725,29,0.5,"$GPGGA,225035.80,4318.1173653,N,11516.8553996,W,2,29,0.5,1658.3725,M,-18.2527,M,1.4,0131*4A","$GPRMC,225036.00,A,4318.1173651,N,11516.8554046,W,0.0,,060225,12.3,E,D*3B"
107,83,190,107,0000-00-00 00:00:00+0000,43.301908,-115.280932,1658.3658,29,0.5,"$GPGGA,225054.00,4318.1144869,N,11516.8559022,W,2,29,0.5,1658.3658,M,-18.2527,M,5.2,0131*43","$GPRMC,225054.20,A,4318.1144868,N,11516.8559029,W,0.0,,060225,12.3,E,D*39"
108,75,190,115,0000-00-00 00:00:00+0000,43.301854,-115.280934,1657.8152,30,0.5,"$GPGGA,225110.00,4318.1112490,N,11516.8560598,W,2,30,0.5,1657.8152,M,-18.2527,M,11.6,0131*75","$GPRMC,225110.20,A,4318.1112521,N,11516.8560642,W,0.0,,060225,12.3,E,D*3A"
109,67,190,123,0000-00-00 00:00:00+0000,43.301799,-115.280947,1657.7562,30,0.5,"$GPGGA,225137.40,4318.1079466,N,11516.8568401,W,2,30,0.5,1657.7562,M,-18.2527,M,3.0,0131*45","$GPRMC,225137.60,A,4318.1079512,N,11516.8568420,W,0.0,,060225,12.3,E,D*39"
110,65,190,125,0000-00-00 00:00:00+0000,43.30175,-115.280954,1657.0692,28,0.5,"$GPGGA,225218.20,4318.1050012,N,11516.8572675,W,2,28,0.5,1657.0692,M,-18.2527,M,1.9,0131*42","$GPRMC,225218.40,A,4318.1050051,N,11516.8572678,W,0.0,,060225,12.3,E,D*38"
111,73,190,117,0000-00-00 00:00:00+0000,43.301696,-115.280962,1656.7899,30,0.5,"$GPGGA,225244.20,4318.1017331,N,11516.8576970,W,2,30,0.5,1656.7899,M,-18.2528,M,3.8,0131*42","$GPRMC,225244.40,A,4318.1017323,N,11516.8576958,W,0.0,,060225,12.3,E,D*3D"
112,77,190,113,0000-00-00 00:00:00+0000,43.301636,-115.280974,1656.3874,30,0.5,"$GPGGA,225305.40,4318.0981771,N,11516.8584637,W,2,30,0.5,1656.3874,M,-18.2528,M,3.4,0131*4D","$GPRMC,225305.60,A,4318.0981767,N,11516.8584589,W,0.0,,060225,12.3,E,D*35"
113,83,190,107,2025-02-06 22:53:28+0000,43.301583,-115.280983,1656.2421,30,0.5,"$GPGGA,225327.80,4318.0950093,N,11516.8589819,W,2,30,0.5,1656.2421,M,-18.2528,M,5.5,0131*43","$GPRMC,225328.00,A,4318.0950134,N,11516.8589849,W,0.1,,060225,12.3,E,D*3D"
114,84,190,106,0000-00-00 00:00:00+0000,43.301532,-115.280989,1655.7922,30,0.5,"$GPGGA,225352.00,4318.0919110,N,11516.8593265,W,2,30,0.5,1655.7922,M,-18.2528,M,5.7,0131*4E","$GPRMC,225352.20,A,4318.0919136,N,11516.8593283,W,0.0,,060225,12.3,E,D*3B"
115,82,190,108,2025-02-06 22:54:11+0000,43.301477,-115.280994,1655.6378,30,0.5,"$GPGGA,225410.80,4318.0885997,N,11516.8596573,W,2,30,0.5,1655.6378,M,-18.2528,M,4.5,0131*46","$GPRMC,225411.00,A,4318.0885981,N,11516.8596672,W,0.0,,060225,12.3,E,D*36"
116,78,190,112,0000-00-00 00:00:00+0000,43.301427,-115.280994,1655.4826,30,0.5,"$GPGGA,225431.20,4318.0855950,N,11516.8596304,W,2,30,0.5,1655.4826,M,-18.2528,M,2.9,0131*47","$GPRMC,225431.20,A,4318.0855950,N,11516.8596304,W,0.1,,060225,12.3,E,D*32"
117,65,190,125,0000-00-00 00:00:00+0000,43.301376,-115.280999,1655.3897,30,0.5,"$GPGGA,225459.40,4318.0825364,N,11516.8599638,W,2,30,0.5,1655.3897,M,-18.2529,M,3.1,0131*45","$GPRMC,225459.60,A,4318.0825348,N,11516.8599651,W,0.0,,060225,12.3,E,D*37"
118,72,190,118,2025-02-06 22:55:39+0000,43.301319,-115.281003,1655.1313,30,0.5,"$GPGGA,225538.80,4318.0791270,N,11516.8601917,W,2,30,0.5,1655.1313,M,-18.2529,M,4.5,0131*4D","$GPRMC,225539.00,A,4318.0791251,N,11516.8601912,W,0.0,,060225,12.3,E,D*35"
119,69,190,121,0000-00-00 00:00:00+0000,43.301266,-115.281011,1654.9504,30,0.5,"$GPGGA,225608.20,4318.0759893,N,11516.8606658,W,2,30,0.5,1654.9504,M,-18.2529,M,3.9,0131*45","$GPRMC,225608.40,A,4318.0759935,N,11516.8606586,W,0.1,,060225,12.3,E,D*3A"
120,73,190,117,0000-00-00 00:00:00+0000,43.301212,-115.281021,1654.0371,30,0.5,"$GPGGA,225705.20,4318.0727200,N,11516.8612485,W,2,30,0.5,1654.0371,M,-18.2529,M,2.9,0131*4B","$GPRMC,225705.40,A,4318.0727296,N,11516.8612470,W,0.1,,060225,12.3,E,D*30"
121,71,190,119,0000-00-00 00:00:00+0000,43.301158,-115.281025,1653.911,30,0.5,"$GPGGA,225737.20,4318.0694898,N,11516.8615003,W,2,30,0.5,1653.9110,M,-18.2529,M,2.9,0131*4E","$GPRMC,225737.40,A,4318.0694949,N,11516.8615013,W,0.0,,060225,12.3,E,D*36"
122,68,190,122,2025-02-06 22:58:05+0000,43.301103,-115.281031,1653.5656,30,0.5,"$GPGGA,225804.80,4318.0661862,N,11516.8618399,W,2,30,0.5,1653.5656,M,-18.2529,M,2.5,0131*4C","$GPRMC,225805.00,A,4318.0661890,N,11516.8618436,W,0.0,,060225,12.3,E,D*3D"
123,81,190,109,0000-00-00 00:00:00+0000,43.301051,-115.281037,1653.3248,29,0.5,"$GPGGA,225832.60,4318.0630601,N,11516.8622447,W,2,29,0.5,1653.3248,M,-18.2529,M,4.3,0131*40","$GPRMC,225832.80,A,4318.0630618,N,11516.8622464,W,0.0,,060225,12.3,E,D*35"
124,71,190,119,0000-00-00 00:00:00+0000,43.301002,-115.281042,1653.3526,29,0.5,"$GPGGA,225901.60,4318.0601337,N,11516.8624931,W,2,29,0.5,1653.3526,M,-18.2530,M,3.3,0131*49","$GPRMC,225901.80,A,4318.0601362,N,11516.8624983,W,0.1,,060225,12.3,E,D*3D"
125,79,190,111,0000-00-00 00:00:00+0000,43.300946,-115.281049,1652.3184,29,0.5,"$GPGGA,225923.60,4318.0567669,N,11516.8629447,W,2,29,0.5,1652.3184,M,-18.2530,M,1.3,0131*4A","$GPRMC,225923.80,A,4318.0567720,N,11516.8629502,W,0.1,,060225,12.3,E,D*34"
126,69,190,121,0000-00-00 00:00:00+0000,43.300893,-115.281054,1651.4377,29,0.5,"$GPGGA,225949.40,4318.0535947,N,11516.8632310,W,2,29,0.5,1651.4377,M,-18.2530,M,3.1,0131*45","$GPRMC,225949.60,A,4318.0535916,N,11516.8632354,W,0.1,,060225,12.3,E,D*35"
127,80,190,110,0000-00-00 00:00:00+0000,43.300841,-115.281061,1650.6033,29,0.5,"$GPGGA,230012.60,4318.0504412,N,11516.8636358,W,2,29,0.5,1650.6033,M,-18.2530,M,2.3,0131*40","$GPRMC,230012.80,A,4318.0504326,N,11516.8636453,W,0.0,,060225,12.3,E,D*36"
128,76,190,114,0000-00-00 00:00:00+0000,43.300784,-115.281067,1650.5112,29,0.5,"$GPGGA,230036.40,4318.0470560,N,11516.8640143,W,2,29,0.5,1650.5112,M,-18.2530,M,2.1,0131*48","$GPRMC,230036.60,A,4318.0470538,N,11516.8640162,W,0.0,,060225,12.3,E,D*33"
129,74,190,116,2025-02-06 23:01:21+0000,43.300734,-115.281075,1650.3161,29,0.5,"$GPGGA,230120.80,4318.0440268,N,11516.8644720,W,2,29,0.5,1650.3161,M,-18.2530,M,4.5,0131*49","$GPRMC,230121.00,A,4318.0440285,N,11516.8644727,W,0.0,,060225,12.3,E,D*33"
130,78,190,112,2025-02-06 23:01:42+0000,43.300681,-115.281075,1650.3323,30,0.5,"$GPGGA,230141.80,4318.0408436,N,11516.8644952,W,2,30,0.5,1650.3323,M,-18.2531,M,1.5,0131*4C","$GPRMC,230142.00,A,4318.0408378,N,11516.8644860,W,0.0,,060225,12.3,E,D*35"
131,75,190,115,0000-00-00 00:00:00+0000,43.300626,-115.281079,1650.314,30,0.5,"$GPGGA,230252.20,4318.0375651,N,11516.8647644,W,2,30,0.5,1650.3140,M,-18.2531,M,5.9,0131*4D","$GPRMC,230252.40,A,4318.0375653,N,11516.8647632,W,0.0,,060225,12.3,E,D*38"
132,73,190,117,0000-00-00 00:00:00+0000,43.30057,-115.281085,1649.9067,30,0.5,"$GPGGA,230326.00,4318.0342165,N,11516.8650997,W,2,30,0.5,1649.9067,M,-18.2531,M,3.7,0131*40","$GPRMC,230326.20,A,4318.0342140,N,11516.8651031,W,0.0,,060225,12.3,E,D*3F"
133,81,190,109,2025-02-06 23:03:55+0000,43.30052,-115.281088,1650.1966,30,0.5,"$GPGGA,230354.80,4318.0311873,N,11516.8652551,W,2,30,0.5,1650.1966,M,-18.2531,M,2.5,0131*4A","$GPRMC,230355.00,A,4318.0311865,N,11516.8652630,W,0.0,,060225,12.3,E,D*35"
134,84,190,106,0000-00-00 00:00:00+0000,43.300465,-115.281091,1650.0154,30,0.5,"$GPGGA,230422.20,4318.0279180,N,11516.8654669,W,2,30,0.5,1650.0154,M,-18.2531,M,5.9,0131*41","$GPRMC,230422.40,A,4318.0279179,N,11516.8654680,W,0.0,,060225,12.3,E,D*30"
135,73,190,117,0000-00-00 00:00:00+0000,43.300414,-115.281093,1649.8258,30,0.5,"$GPGGA,230444.20,4318.0248657,N,11516.8655849,W,2,30,0.5,1649.8258,M,-18.2531,M,3.9,0131*4A","$GPRMC,230444.40,A,4318.0248636,N,11516.8655872,W,0.0,,060225,12.3,E,D*3C"
136,71,190,119,0000-00-00 00:00:00+0000,43.300361,-115.281096,1649.7692,30,0.5,"$GPGGA,230504.60,4318.0216339,N,11516.8657444,W,2,30,0.5,1649.7692,M,-18.2531,M,2.3,0131*48","$GPRMC,230504.60,A,4318.0216339,N,11516.8657444,W,0.0,,060225,12.3,E,D*31"
137,69,190,121,0000-00-00 00:00:00+0000,43.300301,-115.281102,1649.6426,30,0.5,"$GPGGA,230526.60,4318.0180877,N,11516.8661231,W,2,30,0.5,1649.6426,M,-18.2532,M,4.3,0131*4D","$GPRMC,230526.80,A,4318.0180899,N,11516.8661214,W,0.0,,060225,12.3,E,D*34"
138,77,190,113,0000-00-00 00:00:00+0000,43.300246,-115.281108,1649.8453,30,0.5,"$GPGGA,230554.00,4318.0147553,N,11516.8664940,W,2,30,0.5,1649.8453,M,-18.2532,M,1.7,0131*4B","$GPRMC,230554.20,A,4318.0147486,N,11516.8664941,W,0.0,,060225,12.3,E,D*3C"
139,79,190,111,0000-00-00 00:00:00+0000,43.300194,-115.28111,1649.7613,30,0.5,"$GPGGA,230630.40,4318.0116381,N,11516.8666190,W,2,30,0.5,1649.7613,M,-18.2532,M,2.1,0131*48","$GPRMC,230630.60,A,4318.0116362,N,11516.8666271,W,0.0,,060225,12.3,E,D*3A"
140,90,190,100,0000-00-00 00:00:00+0000,43.300144,-115.281114,1649.5256,29,0.5,"$GPGGA,230715.40,4318.0086212,N,11516.8668265,W,2,29,0.5,1649.5256,M,-18.2532,M,5.1,0131*42","$GPRMC,230715.60,A,4318.0086274,N,11516.8668255,W,0.0,,060225,12.3,E,D*3A"
141,77,190,113,0000-00-00 00:00:00+0000,43.300086,-115.281122,1650.0579,29,0.5,"$GPGGA,230837.00,4318.0051814,N,11516.8673201,W,2,29,0.5,1650.0579,M,-18.2532,M,2.7,0131*41","$GPRMC,230837.20,A,4318.0051826,N,11516.8673277,W,0.0,,060225,12.3,E,D*3C"
142,83,190,107,0000-00-00 00:00:00+0000,43.300034,-115.281128,1650.1105,29,0.5,"$GPGGA,230902.60,4318.0020379,N,11516.8676689,W,2,29,0.5,1650.1105,M,-18.2532,M,4.3,0131*4B","$GPRMC,230902.60,A,4318.0020379,N,11516.8676689,W,0.0,,060225,12.3,E,D*38"
143,71,190,119,0000-00-00 00:00:00+0000,43.299983,-115.281135,1649.73,29,0.5,"$GPGGA,230944.40,4317.9989931,N,11516.8680758,W,2,29,0.5,1649.7300,M,-18.2533,M,4.1,0131*4F","$GPRMC,230944.60,A,4317.9989896,N,11516.8680726,W,0.1,,060225,12.3,E,D*30"
144,79,190,111,0000-00-00 00:00:00+0000,43.299934,-115.281136,1650.2784,28,0.5,"$GPGGA,231007.40,4317.9960270,N,11516.8681407,W,2,28,0.5,1650.2784,M,-18.2533,M,3.1,0131*42","$GPRMC,231007.60,A,4317.9960207,N,11516.8681462,W,0.1,,060225,12.3,E,D*38"
145,83,190,107,0000-00-00 00:00:00+0000,43.299881,-115.28114,1650.7453,29,0.5,"$GPGGA,231036.20,4317.9928346,N,11516.8684273,W,2,29,0.5,1650.7453,M,-18.2533,M,1.8,0131*48","$GPRMC,231036.40,A,4317.9928386,N,11516.8684326,W,0.1,,060225,12.3,E,D*3E"
146,92,190,98,0000-00-00 00:00:00+0000,43.299827,-115.281145,1650.6781,29,0.5,"$GPGGA,231111.00,4317.9895921,N,11516.8686869,W,2,29,0.5,1650.6781,M,-18.2533,M,2.7,0131*40","$GPRMC,231111.20,A,4317.9895963,N,11516.8686901,W,0.0,,060225,12.3,E,D*36"
147,81,190,109,0000-00-00 00:00:00+0000,43.299773,-115.281151,1651.0436,28,0.5,"$GPGGA,231135.60,4317.9863685,N,11516.8690375,W,2,28,0.5,1651.0436,M,-18.2533,M,1.3,0131*47","$GPRMC,231135.80,A,4317.9863701,N,11516.8690400,W,0.0,,060225,12.3,E,D*32"
148,84,190,106,0000-00-00 00:00:00+0000,43.299721,-115.281159,1651.282,29,0.5,"$GPGGA,231156.20,4317.9832346,N,11516.8695329,W,2,29,0.5,1651.2820,M,-18.2533,M,3.9,0131*44","$GPRMC,231156.40,A,4317.9832337,N,11516.8695338,W,0.1,,060225,12.3,E,D*36"
149,82,190,108,0000-00-00 00:00:00+0000,43.299674,-115.281164,1651.6176,29,0.5,"$GPGGA,231218.60,4317.9804106,N,11516.8698240,W,2,29,0.5,1651.6176,M,-18.2533,M,2.3,0131*4C","$GPRMC,231218.80,A,4317.9804070,N,11516.8698254,W,0.1,,060225,12.3,E,D*30"
150,87,190,103,0000-00-00 00:00:00+0000,43.299623,-115.281172,1651.4121,29,0.5,"$GPGGA,231241.00,4317.9773979,N,11516.8703493,W,2,29,0.5,1651.4121,M,-18.2534,M,2.7,0131*41","$GPRMC,231241.20,A,4317.9773967,N,11516.8703450,W,0.1,,060225,12.3,E,D*37"
151,83,190,107,2025-02-06 23:13:23+0000,43.299566,-115.281179,1651.6316,29,0.5,"$GPGGA,231322.80,4317.9739506,N,11516.8707404,W,2,29,0.5,1651.6316,M,-18.2534,M,2.5,0131*4B","$GPRMC,231323.00,A,4317.9739573,N,11516.8707454,W,0.0,,060225,12.3,E,D*36"
152,86,190,104,0000-00-00 00:00:00+0000,43.299514,-115.281186,1652.223,29,0.5,"$GPGGA,231347.20,4317.9708690,N,11516.8711307,W,2,29,0.5,1652.2230,M,-18.2534,M,4.9,0131*47","$GPRMC,231347.40,A,4317.9708697,N,11516.8711322,W,0.2,,060225,12.3,E,D*38"
153,100,190,90,2025-02-06 23:14:13+0000,43.299461,-115.281192,1652.3303,31,0.5,"$GPGGA,231412.80,4317.9676494,N,11516.8715078,W,2,31,0.5,1652.3303,M,-18.2534,M,2.5,0131*48","$GPRMC,231413.00,A,4317.9676481,N,11516.8715116,W,0.1,,060225,12.3,E,D*35"
0,87,196,109,0000-00-00 00:00:00+0000,43.299363,-115.281217,1652.9982,30,0.5,"$GPGGA,232456.60,4317.9617719,N,11516.8730181,W,1,30,0.5,1652.9982,M,-18.2534,M,,*65","$GPRMC,232456.80,A,4317.9617736,N,11516.8730197,W,0.0,,060225,12.3,E,A*3D"
1,83,196,113,2025-02-06 23:25:11+0000,43.299311,-115.281222,1653.2419,31,0.5,"$GPGGA,232510.80,4317.9586336,N,11516.8733422,W,1,31,0.5,1653.2419,M,-18.2535,M,,*60","$GPRMC,232511.00,A,4317.9586381,N,11516.8733484,W,0.0,,060225,12.3,E,A*30"
2,86,196,110,2025-02-06 23:25:28+0000,43.299261,-115.281226,1653.2887,31,0.5,"$GPGGA,232527.80,4317.9556811,N,11516.8735745,W,1,31,0.5,1653.2887,M,-18.2535,M,,*68","$GPRMC,232528.00,A,4317.9556672,N,11516.8735735,W,0.1,,060225,12.3,E,A*30"
3,86,196,110,0000-00-00 00:00:00+0000,43.29922,-115.28123,1652.6521,30,0.5,"$GPGGA,232551.40,4317.9531821,N,11516.8738293,W,2,30,0.5,1652.6521,M,-18.2535,M,5.8,0135*46","$GPRMC,232551.60,A,4317.9531855,N,11516.8738311,W,0.1,,060225,12.3,E,D*38"
4,87,196,109,0000-00-00 00:00:00+0000,43.299168,-115.281236,1651.7361,31,0.5,"$GPGGA,232608.00,4317.9501087,N,11516.8741357,W,2,31,0.5,1651.7361,M,-18.2535,M,3.8,0135*4A","$GPRMC,232608.20,A,4317.9501101,N,11516.8741379,W,0.0,,060225,12.3,E,D*39"
5,96,196,100,0000-00-00 00:00:00+0000,43.299115,-115.281239,1650.8721,31,0.5,"$GPGGA,232624.00,4317.9468888,N,11516.8743495,W,2,31,0.5,1650.8721,M,-18.2535,M,1.8,0135*4A","$GPRMC,232624.20,A,4317.9468887,N,11516.8743528,W,0.0,,060225,12.3,E,D*3E"
